{
"type": "FeatureCollection",
"crs": { "type": "name", "properties": { "name": "urn:ogc:def:crs:EPSG::4674" } },
"features": [
{ "type": "Feature", "properties": { "id_estadio": 1, "estadio": "Ligga Arena", "cidade": "Curitiba", "uf": "PR", "capacidade": "42 370", "latitude": -25.448229, "longitude": -49.276945 }, "geometry": { "type": "Point", "coordinates": [ -49.276945, -25.448229 ] } },
{ "type": "Feature", "properties": { "id_estadio": 2, "estadio": "Antônio Accioly", "cidade": "Goiânia", "uf": "GO", "capacidade": "12 500", "latitude": -16.670151, "longitude": -49.284245 }, "geometry": { "type": "Point", "coordinates": [ -49.284245, -16.670151 ] } },
{ "type": "Feature", "properties": { "id_estadio": 3, "estadio": "Arena MRV", "cidade": "Belo Horizonte", "uf": "MG", "capacidade": "44 892", "latitude": -19.930073, "longitude": -44.014614 }, "geometry": { "type": "Point", "coordinates": [ -44.014614, -19.930073 ] } },
{ "type": "Feature", "properties": { "id_estadio": 4, "estadio": "Itaipava Arena Fonte Nova", "cidade": "Salvador", "uf": "BA", "capacidade": "50 025", "latitude": -12.978817, "longitude": -38.504274 }, "geometry": { "type": "Point", "coordinates": [ -38.504274, -12.978817 ] } },
{ "type": "Feature", "properties": { "id_estadio": 5, "estadio": "Nilton Santos", "cidade": "Rio de Janeiro", "uf": "RJ", "capacidade": "44 661", "latitude": -22.893275, "longitude": -43.292311 }, "geometry": { "type": "Point", "coordinates": [ -43.292311, -22.893275 ] } },
{ "type": "Feature", "properties": { "id_estadio": 6, "estadio": "Neo Química Arena", "cidade": "São Paulo", "uf": "SP", "capacidade": "47 605", "latitude": -23.545318, "longitude": -46.47424 }, "geometry": { "type": "Point", "coordinates": [ -46.47424, -23.545318 ] } },
{ "type": "Feature", "properties": { "id_estadio": 7, "estadio": "Heriberto Hülse", "cidade": "Criciúma", "uf": "SC", "capacidade": "19 225", "latitude": -28.684343, "longitude": -49.36767 }, "geometry": { "type": "Point", "coordinates": [ -49.36767, -28.684343 ] } },
{ "type": "Feature", "properties": { "id_estadio": 8, "estadio": "Mineirão", "cidade": "Belo Horizonte", "uf": "MG", "capacidade": "61 927", "latitude": -19.865907, "longitude": -43.971082 }, "geometry": { "type": "Point", "coordinates": [ -43.971082, -19.865907 ] } },
{ "type": "Feature", "properties": { "id_estadio": 9, "estadio": "Arena Pantanal", "cidade": "Cuiabá", "uf": "MT", "capacidade": "44 097", "latitude": -15.604055, "longitude": -56.121628 }, "geometry": { "type": "Point", "coordinates": [ -56.121628, -15.604055 ] } },
{ "type": "Feature", "properties": { "id_estadio": 10, "estadio": "Maracanã", "cidade": "Rio de Janeiro", "uf": "RJ", "capacidade": "78 838", "latitude": -22.912146, "longitude": -43.230192 }, "geometry": { "type": "Point", "coordinates": [ -43.230192, -22.912146 ] } },
{ "type": "Feature", "properties": { "id_estadio": 11, "estadio": "Arena Castelão", "cidade": "Fortaleza", "uf": "CE", "capacidade": "63 903", "latitude": -3.807274, "longitude": -38.522454 }, "geometry": { "type": "Point", "coordinates": [ -38.522454, -3.807274 ] } },
{ "type": "Feature", "properties": { "id_estadio": 12, "estadio": "Arena do Grêmio", "cidade": "Porto Alegre", "uf": "RS", "capacidade": "55 662", "latitude": -29.973981, "longitude": -51.194841 }, "geometry": { "type": "Point", "coordinates": [ -51.194841, -29.973981 ] } },
{ "type": "Feature", "properties": { "id_estadio": 13, "estadio": "Beira-Rio", "cidade": "Porto Alegre", "uf": "RS", "capacidade": "50 842", "latitude": -30.065512, "longitude": -51.235807 }, "geometry": { "type": "Point", "coordinates": [ -51.235807, -30.065512 ] } },
{ "type": "Feature", "properties": { "id_estadio": 14, "estadio": "Alfredo Jaconi", "cidade": "Caxias do Sul", "uf": "RS", "capacidade": "19 924", "latitude": -29.162317, "longitude": -51.176232 }, "geometry": { "type": "Point", "coordinates": [ -51.176232, -29.162317 ] } },
{ "type": "Feature", "properties": { "id_estadio": 15, "estadio": "Allianz Parque", "cidade": "São Paulo", "uf": "SP", "capacidade": "43 713", "latitude": -23.527482, "longitude": -46.678553 }, "geometry": { "type": "Point", "coordinates": [ -46.678553, -23.527482 ] } },
{ "type": "Feature", "properties": { "id_estadio": 16, "estadio": "Nabi Abi Chedid", "cidade": "Bragança Paulista", "uf": "SP", "capacidade": "15 010", "latitude": -22.965391, "longitude": -46.536817 }, "geometry": { "type": "Point", "coordinates": [ -46.536817, -22.965391 ] } },
{ "type": "Feature", "properties": { "id_estadio": 17, "estadio": "Morumbis", "cidade": "São Paulo", "uf": "SP", "capacidade": "72 039", "latitude": -23.600109, "longitude": -46.720099 }, "geometry": { "type": "Point", "coordinates": [ -46.720099, -23.600109 ] } },
{ "type": "Feature", "properties": { "id_estadio": 18, "estadio": "São Januário", "cidade": "Rio de Janeiro", "uf": "RJ", "capacidade": "21 680", "latitude": -22.890887, "longitude": -43.228285 }, "geometry": { "type": "Point", "coordinates": [ -43.228285, -22.890887 ] } },
{ "type": "Feature", "properties": { "id_estadio": 19, "estadio": "Barradão", "cidade": "Salvador", "uf": "BA", "capacidade": "29 168", "latitude": -12.919185, "longitude": -38.427161 }, "geometry": { "type": "Point", "coordinates": [ -38.427161, -12.919185 ] } },
{ "type": "Feature", "properties": { "id_estadio": 20, "estadio": "Arena da Amazônia", "cidade": "Manaus", "uf": "AM", "capacidade": "44 000", "latitude": -3.083238, "longitude": -60.028132 }, "geometry": { "type": "Point", "coordinates": [ -60.028132, -3.083238 ] } },
{ "type": "Feature", "properties": { "id_estadio": 21, "estadio": "Independência", "cidade": "Belo Horizonte", "uf": "MG", "capacidade": "23 018", "latitude": -19.908576, "longitude": -43.917879 }, "geometry": { "type": "Point", "coordinates": [ -43.917879, -19.908576 ] } },
{ "type": "Feature", "properties": { "id_estadio": 22, "estadio": "Ressacada", "cidade": "Florianópolis", "uf": "SC", "capacidade": "17 800", "latitude": -27.666608, "longitude": -48.531638 }, "geometry": { "type": "Point", "coordinates": [ -48.531638, -27.666608 ] } },
{ "type": "Feature", "properties": { "id_estadio": 23, "estadio": "Santa Cruz", "cidade": "Ribeirão Preto", "uf": "SP", "capacidade": "25 000", "latitude": -21.202336, "longitude": -47.790125 }, "geometry": { "type": "Point", "coordinates": [ -47.790125, -21.202336 ] } },
{ "type": "Feature", "properties": { "id_estadio": 24, "estadio": "Augusto Bauer", "cidade": "Brusque", "uf": "SC", "capacidade": "5 000", "latitude": -27.101421, "longitude": -48.916007 }, "geometry": { "type": "Point", "coordinates": [ -48.916007, -27.101421 ] } },
{ "type": "Feature", "properties": { "id_estadio": 25, "estadio": "Arena Condá", "cidade": "Chapecó", "uf": "SC", "capacidade": "20 289", "latitude": -27.104061, "longitude": -52.606987 }, "geometry": { "type": "Point", "coordinates": [ -52.606987, -27.104061 ] } },
{ "type": "Feature", "properties": { "id_estadio": 26, "estadio": "Couto Pereira", "cidade": "Curitiba", "uf": "PR", "capacidade": "40 502", "latitude": -25.421098, "longitude": -49.259558 }, "geometry": { "type": "Point", "coordinates": [ -49.259558, -25.421098 ] } },
{ "type": "Feature", "properties": { "id_estadio": 27, "estadio": "Rei Pelé", "cidade": "Maceió", "uf": "AL", "capacidade": "17 126", "latitude": -9.670839, "longitude": -35.759466 }, "geometry": { "type": "Point", "coordinates": [ -35.759466, -9.670839 ] } },
{ "type": "Feature", "properties": { "id_estadio": 28, "estadio": "Hailé Pinheiro", "cidade": "Goiânia", "uf": "GO", "capacidade": "14 525", "latitude": -16.711179, "longitude": -49.261236 }, "geometry": { "type": "Point", "coordinates": [ -49.261236, -16.711179 ] } },
{ "type": "Feature", "properties": { "id_estadio": 29, "estadio": "Brinco de Ouro", "cidade": "Campinas", "uf": "SP", "capacidade": "29 130", "latitude": -22.909611, "longitude": -47.043404 }, "geometry": { "type": "Point", "coordinates": [ -47.043404, -22.909611 ] } },
{ "type": "Feature", "properties": { "id_estadio": 30, "estadio": "Novelli Junior", "cidade": "Itu", "uf": "SP", "capacidade": "15 600", "latitude": -23.280781, "longitude": -47.287726 }, "geometry": { "type": "Point", "coordinates": [ -47.287726, -23.280781 ] } },
{ "type": "Feature", "properties": { "id_estadio": 31, "estadio": "Campos Maia", "cidade": "Mirassol", "uf": "SP", "capacidade": "15 000", "latitude": -20.822354, "longitude": -49.506405 }, "geometry": { "type": "Point", "coordinates": [ -49.506405, -20.822354 ] } },
{ "type": "Feature", "properties": { "id_estadio": 32, "estadio": "Jorge Ismael de Biasi", "cidade": "Novo Horizonte", "uf": "SP", "capacidade": "12 398", "latitude": -21.46686, "longitude": -49.232083 }, "geometry": { "type": "Point", "coordinates": [ -49.232083, -21.46686 ] } },
{ "type": "Feature", "properties": { "id_estadio": 33, "estadio": "Germano Krüger", "cidade": "Ponta Grossa", "uf": "PR", "capacidade": "8 000", "latitude": -25.116146, "longitude": -50.156599 }, "geometry": { "type": "Point", "coordinates": [ -50.156599, -25.116146 ] } },
{ "type": "Feature", "properties": { "id_estadio": 34, "estadio": "Curuzu", "cidade": "Belém", "uf": "PA", "capacidade": "16 200", "latitude": -1.444066, "longitude": -48.462912 }, "geometry": { "type": "Point", "coordinates": [ -48.462912, -1.444066 ] } },
{ "type": "Feature", "properties": { "id_estadio": 35, "estadio": "Moisés Lucarelli", "cidade": "Campinas", "uf": "SP", "capacidade": "17 728", "latitude": -22.913536, "longitude": -47.051212 }, "geometry": { "type": "Point", "coordinates": [ -47.051212, -22.913536 ] } },
{ "type": "Feature", "properties": { "id_estadio": 36, "estadio": "Vila Belmiro", "cidade": "Santos", "uf": "SP", "capacidade": "20 360", "latitude": -23.951086, "longitude": -46.3389 }, "geometry": { "type": "Point", "coordinates": [ -46.3389, -23.951086 ] } },
{ "type": "Feature", "properties": { "id_estadio": 37, "estadio": "Ilha do Retiro", "cidade": "Recife", "uf": "PE", "capacidade": "26 418", "latitude": -8.062918, "longitude": -34.902922 }, "geometry": { "type": "Point", "coordinates": [ -34.902922, -8.062918 ] } },
{ "type": "Feature", "properties": { "id_estadio": 38, "estadio": "OBA", "cidade": "Goiânia", "uf": "GO", "capacidade": "11 788", "latitude": -16.673525, "longitude": -49.237731 }, "geometry": { "type": "Point", "coordinates": [ -49.237731, -16.673525 ] } },
{ "type": "Feature", "properties": { "id_estadio": 39, "estadio": "Frasqueirão", "cidade": "Natal", "uf": "RN", "capacidade": "15 640", "latitude": -5.889137, "longitude": -35.179285 }, "geometry": { "type": "Point", "coordinates": [ -35.179285, -5.889137 ] } },
{ "type": "Feature", "properties": { "id_estadio": 42, "estadio": "Almeidão", "cidade": "João Pessoa", "uf": "PB", "capacidade": "19 000", "latitude": -7.167176, "longitude": -34.873322 }, "geometry": { "type": "Point", "coordinates": [ -34.873322, -7.167176 ] } },
{ "type": "Feature", "properties": { "id_estadio": 43, "estadio": "Centenário", "cidade": "Caxias do Sul", "uf": "RS", "capacidade": "22 132", "latitude": -29.165026, "longitude": -51.196474 }, "geometry": { "type": "Point", "coordinates": [ -51.196474, -29.165026 ] } },
{ "type": "Feature", "properties": { "id_estadio": 44, "estadio": "Batistão", "cidade": "Aracaju", "uf": "SE", "capacidade": "15 000", "latitude": -10.927028, "longitude": -37.049133 }, "geometry": { "type": "Point", "coordinates": [ -37.049133, -10.927028 ] } },
{ "type": "Feature", "properties": { "id_estadio": 45, "estadio": "Fonte Luminosa", "cidade": "Araraquara", "uf": "SP", "capacidade": "20 000", "latitude": -21.774377, "longitude": -48.169947 }, "geometry": { "type": "Point", "coordinates": [ -48.169947, -21.774377 ] } },
{ "type": "Feature", "properties": { "id_estadio": 46, "estadio": "Presidente Vargas", "cidade": "Fortaleza", "uf": "CE", "capacidade": "20 268", "latitude": -3.745922, "longitude": -38.536798 }, "geometry": { "type": "Point", "coordinates": [ -38.536798, -3.745922 ] } },
{ "type": "Feature", "properties": { "id_estadio": 47, "estadio": "Orlando Scarpelli", "cidade": "Florianópolis", "uf": "SC", "capacidade": "19 584", "latitude": -27.585689, "longitude": -48.5865 }, "geometry": { "type": "Point", "coordinates": [ -48.5865, -27.585689 ] } },
{ "type": "Feature", "properties": { "id_estadio": 48, "estadio": "Estádio do Café", "cidade": "Londrina", "uf": "PR", "capacidade": "30 000", "latitude": -23.282328, "longitude": -51.164897 }, "geometry": { "type": "Point", "coordinates": [ -51.164897, -23.282328 ] } },
{ "type": "Feature", "properties": { "id_estadio": 49, "estadio": "Aflitos", "cidade": "Recife", "uf": "PE", "capacidade": "22 856", "latitude": -8.040542, "longitude": -34.896817 }, "geometry": { "type": "Point", "coordinates": [ -34.896817, -8.040542 ] } },
{ "type": "Feature", "properties": { "id_estadio": 51, "estadio": "Castelão", "cidade": "São Luís", "uf": "MA", "capacidade": "40 149", "latitude": -2.548749, "longitude": -44.260068 }, "geometry": { "type": "Point", "coordinates": [ -44.260068, -2.548749 ] } },
{ "type": "Feature", "properties": { "id_estadio": 52, "estadio": "Primeiro de Maio", "cidade": "São Bernardo do Campo", "uf": "SP", "capacidade": "13 440", "latitude": -23.69993, "longitude": -46.556385 }, "geometry": { "type": "Point", "coordinates": [ -46.556385, -23.69993 ] } },
{ "type": "Feature", "properties": { "id_estadio": 53, "estadio": "Passo d'Areia", "cidade": "Porto Alegre", "uf": "RS", "capacidade": "14 000", "latitude": -30.006618, "longitude": -51.173561 }, "geometry": { "type": "Point", "coordinates": [ -51.173561, -30.006618 ] } },
{ "type": "Feature", "properties": { "id_estadio": 55, "estadio": "Colosso da Lagoa", "cidade": "Erechim", "uf": "RS", "capacidade": "22 000", "latitude": -27.651245, "longitude": -52.264844 }, "geometry": { "type": "Point", "coordinates": [ -52.264844, -27.651245 ] } },
{ "type": "Feature", "properties": { "id_estadio": 57, "estadio": "Zinho de Oliveira", "cidade": "Marabá", "uf": "PA", "capacidade": "5 000", "latitude": -5.35213, "longitude": -49.13845 }, "geometry": { "type": "Point", "coordinates": [ -49.13845, -5.35213 ] } },
{ "type": "Feature", "properties": { "id_estadio": 59, "estadio": "Arena das Dunas", "cidade": "Natal", "uf": "RN", "capacidade": "32 000", "latitude": -5.826802, "longitude": -35.212423 }, "geometry": { "type": "Point", "coordinates": [ -35.212423, -5.826802 ] } },
{ "type": "Feature", "properties": { "id_estadio": 60, "estadio": "Jonas Duarte", "cidade": "Anápolis", "uf": "GO", "capacidade": "20 000", "latitude": -16.346379, "longitude": -48.95555 }, "geometry": { "type": "Point", "coordinates": [ -48.95555, -16.346379 ] } },
{ "type": "Feature", "properties": { "id_estadio": 61, "estadio": "Coaracy Fonseca", "cidade": "Arapiraca", "uf": "AL", "capacidade": "12 500", "latitude": -9.747646, "longitude": -36.666798 }, "geometry": { "type": "Point", "coordinates": [ -36.666798, -9.747646 ] } },
{ "type": "Feature", "properties": { "id_estadio": 62, "estadio": "Bacaxá", "cidade": "Saquarema", "uf": "RJ", "capacidade": "8 000", "latitude": -22.8939, "longitude": -42.4663 }, "geometry": { "type": "Point", "coordinates": [ -42.4663, -22.8939 ] } },
{ "type": "Feature", "properties": { "id_estadio": 63, "estadio": "Eucaliptos", "cidade": "Santa Cruz do Sul", "uf": "RS", "capacidade": "3 000", "latitude": -29.706768, "longitude": -52.442183 }, "geometry": { "type": "Point", "coordinates": [ -52.442183, -29.706768 ] } },
{ "type": "Feature", "properties": { "id_estadio": 65, "estadio": "Bento Freitas", "cidade": "Pelotas", "uf": "RS", "capacidade": "12 314", "latitude": -31.771053, "longitude": -52.332493 }, "geometry": { "type": "Point", "coordinates": [ -52.332493, -31.771053 ] } },
{ "type": "Feature", "properties": { "id_estadio": 66, "estadio": "Serejão", "cidade": "Taguatinga", "uf": "DF", "capacidade": "27 000", "latitude": -15.83616, "longitude": -48.080657 }, "geometry": { "type": "Point", "coordinates": [ -48.080657, -15.83616 ] } },
{ "type": "Feature", "properties": { "id_estadio": 68, "estadio": "Estádio Nilton Santos", "cidade": "Palmas", "uf": "TO", "capacidade": "12 000", "latitude": -10.28211, "longitude": -48.330552 }, "geometry": { "type": "Point", "coordinates": [ -48.330552, -10.28211 ] } },
{ "type": "Feature", "properties": { "id_estadio": 69, "estadio": "Albino Turbay", "cidade": "Cianorte", "uf": "PR", "capacidade": "4 000", "latitude": -23.661463, "longitude": -52.593535 }, "geometry": { "type": "Point", "coordinates": [ -52.593535, -23.661463 ] } },
{ "type": "Feature", "properties": { "id_estadio": 70, "estadio": "Domingos Machado de Lima", "cidade": "Concórdia", "uf": "SC", "capacidade": "5 000", "latitude": -27.227759, "longitude": -52.017688 }, "geometry": { "type": "Point", "coordinates": [ -52.017688, -27.227759 ] } },
{ "type": "Feature", "properties": { "id_estadio": 73, "estadio": "Juca Sampaio", "cidade": "Palmeira dos Índios", "uf": "AL", "capacidade": "7 000", "latitude": -9.413243, "longitude": -36.635358 }, "geometry": { "type": "Point", "coordinates": [ -36.635358, -9.413243 ] } },
{ "type": "Feature", "properties": { "id_estadio": 75, "estadio": "Olímpico Regional", "cidade": "Cascavel", "uf": "PR", "capacidade": "28 125", "latitude": -24.974993, "longitude": -53.502375 }, "geometry": { "type": "Point", "coordinates": [ -53.502375, -24.974993 ] } },
{ "type": "Feature", "properties": { "id_estadio": 76, "estadio": "Albertão", "cidade": "Teresina", "uf": "PI", "capacidade": "52 296", "latitude": -5.116094, "longitude": -42.79274 }, "geometry": { "type": "Point", "coordinates": [ -42.79274, -5.116094 ] } },
{ "type": "Feature", "properties": { "id_estadio": 64, "estadio": "Aníbal Costa", "cidade": "Tubarão", "uf": "SC", "capacidade": "6 800", "latitude": -28.498044, "longitude": -49.020718 }, "geometry": { "type": "Point", "coordinates": [ -49.020718, -28.498044 ] } },
{ "type": "Feature", "properties": { "id_estadio": 78, "estadio": "Morenão", "cidade": "Iguatu", "uf": "CE", "capacidade": "3 600", "latitude": -6.367873, "longitude": -39.302777 }, "geometry": { "type": "Point", "coordinates": [ -39.302777, -6.367873 ] } },
{ "type": "Feature", "properties": { "id_estadio": 79, "estadio": "Limeirão", "cidade": "Limeira", "uf": "SP", "capacidade": "18 000", "latitude": -22.555381, "longitude": -47.385111 }, "geometry": { "type": "Point", "coordinates": [ -47.385111, -22.555381 ] } },
{ "type": "Feature", "properties": { "id_estadio": 80, "estadio": "Ipatingão", "cidade": "Ipatinga", "uf": "MG", "capacidade": "22 000", "latitude": -19.471082, "longitude": -42.541687 }, "geometry": { "type": "Point", "coordinates": [ -42.541687, -19.471082 ] } },
{ "type": "Feature", "properties": { "id_estadio": 81, "estadio": "Ferreirão", "cidade": "Iporá", "uf": "GO", "capacidade": "6 520", "latitude": -16.459724, "longitude": -51.115098 }, "geometry": { "type": "Point", "coordinates": [ -51.115098, -16.459724 ] } },
{ "type": "Feature", "properties": { "id_estadio": 82, "estadio": "Etelvino Mendonça", "cidade": "Itabaiana", "uf": "SE", "capacidade": "10 000", "latitude": -10.688562, "longitude": -37.431923 }, "geometry": { "type": "Point", "coordinates": [ -37.431923, -10.688562 ] } },
{ "type": "Feature", "properties": { "id_estadio": 83, "estadio": "Ribeirão", "cidade": "Itabuna", "uf": "BA", "capacidade": "7 000", "latitude": -14.807631, "longitude": -39.279337 }, "geometry": { "type": "Point", "coordinates": [ -39.279337, -14.807631 ] } },
{ "type": "Feature", "properties": { "id_estadio": 84, "estadio": "Valfredão", "cidade": "Riachão do Jacuípe", "uf": "BA", "capacidade": "5 000", "latitude": -11.807893, "longitude": -39.379363 }, "geometry": { "type": "Point", "coordinates": [ -39.379363, -11.807893 ] } },
{ "type": "Feature", "properties": { "id_estadio": 85, "estadio": "Adautão", "cidade": "Juazeiro", "uf": "BA", "capacidade": "12 120", "latitude": -9.415693, "longitude": -40.502905 }, "geometry": { "type": "Point", "coordinates": [ -40.502905, -9.415693 ] } },
{ "type": "Feature", "properties": { "id_estadio": 86, "estadio": "Carlos Zamith", "cidade": "Manaus", "uf": "AM", "capacidade": "5 000", "latitude": -3.084365, "longitude": -59.983956 }, "geometry": { "type": "Point", "coordinates": [ -59.983956, -3.084365 ] } },
{ "type": "Feature", "properties": { "id_estadio": 87, "estadio": "Colina", "cidade": "Manaus", "uf": "AM", "capacidade": "10 451", "latitude": -3.121597, "longitude": -60.03776 }, "geometry": { "type": "Point", "coordinates": [ -60.03776, -3.121597 ] } },
{ "type": "Feature", "properties": { "id_estadio": 88, "estadio": "Almir Dutra", "cidade": "Maracanaú", "uf": "CE", "capacidade": "18 000", "latitude": -3.881928, "longitude": -38.629861 }, "geometry": { "type": "Point", "coordinates": [ -38.629861, -3.881928 ] } },
{ "type": "Feature", "properties": { "id_estadio": 89, "estadio": "Nhozinho Santos", "cidade": "São Luís", "uf": "MA", "capacidade": "12 891", "latitude": -2.536328, "longitude": -44.289161 }, "geometry": { "type": "Point", "coordinates": [ -44.289161, -2.536328 ] } },
{ "type": "Feature", "properties": { "id_estadio": 90, "estadio": "Willie Davids", "cidade": "Maringá", "uf": "PR", "capacidade": "16 000", "latitude": -23.414138, "longitude": -51.938045 }, "geometry": { "type": "Point", "coordinates": [ -51.938045, -23.414138 ] } },
{ "type": "Feature", "properties": { "id_estadio": 91, "estadio": "Dutrinha", "cidade": "Cuiabá", "uf": "MT", "capacidade": "7 500", "latitude": -15.607472, "longitude": -56.10473 }, "geometry": { "type": "Point", "coordinates": [ -56.10473, -15.607472 ] } },
{ "type": "Feature", "properties": { "id_estadio": 92, "estadio": "Laranjão", "cidade": "Nova Iguaçu", "uf": "RJ", "capacidade": "1 810", "latitude": -22.748191, "longitude": -43.460908 }, "geometry": { "type": "Point", "coordinates": [ -43.460908, -22.748191 ] } },
{ "type": "Feature", "properties": { "id_estadio": 93, "estadio": "Estádio do Vale", "cidade": "Novo Hamburgo", "uf": "RS", "capacidade": "5 196", "latitude": -29.7262, "longitude": -51.143787 }, "geometry": { "type": "Point", "coordinates": [ -51.143787, -29.7262 ] } },
{ "type": "Feature", "properties": { "id_estadio": 94, "estadio": "Paulo Coelho", "cidade": "Petrolina", "uf": "PE", "capacidade": "5 000", "latitude": -9.390225, "longitude": -40.504501 }, "geometry": { "type": "Point", "coordinates": [ -40.504501, -9.390225 ] } },
{ "type": "Feature", "properties": { "id_estadio": 95, "estadio": "Aluizão", "cidade": "Porto Velho", "uf": "RO", "capacidade": "5 000", "latitude": -8.757151, "longitude": -63.910525 }, "geometry": { "type": "Point", "coordinates": [ -63.910525, -8.757151 ] } },
{ "type": "Feature", "properties": { "id_estadio": 96, "estadio": "Luso-Brasileiro", "cidade": "Rio de Janeiro", "uf": "RJ", "capacidade": "5 044", "latitude": -22.801615, "longitude": -43.207791 }, "geometry": { "type": "Point", "coordinates": [ -43.207791, -22.801615 ] } },
{ "type": "Feature", "properties": { "id_estadio": 98, "estadio": "Manduzão", "cidade": "Pouso Alegre", "uf": "MG", "capacidade": "26 000", "latitude": -22.251434, "longitude": -45.921524 }, "geometry": { "type": "Point", "coordinates": [ -45.921524, -22.251434 ] } },
{ "type": "Feature", "properties": { "id_estadio": 99, "estadio": "Gilbertão", "cidade": "Manacapuru", "uf": "AM", "capacidade": "8 000", "latitude": -3.283407, "longitude": -60.631627 }, "geometry": { "type": "Point", "coordinates": [ -60.631627, -3.283407 ] } },
{ "type": "Feature", "properties": { "id_estadio": 102, "estadio": "Arena de Pernambuco", "cidade": "Camaragibe", "uf": "PE", "capacidade": "44 000", "latitude": -8.040679, "longitude": -35.008224 }, "geometry": { "type": "Point", "coordinates": [ -35.008224, -8.040679 ] } },
{ "type": "Feature", "properties": { "id_estadio": 103, "estadio": "Bruno José Daniel", "cidade": "Santo André", "uf": "SP", "capacidade": "8 000", "latitude": -23.669578, "longitude": -46.509291 }, "geometry": { "type": "Point", "coordinates": [ -46.509291, -23.669578 ] } },
{ "type": "Feature", "properties": { "id_estadio": 104, "estadio": "Martins Pereira", "cidade": "São José dos Campos", "uf": "SP", "capacidade": "16 500", "latitude": -23.188534, "longitude": -45.869916 }, "geometry": { "type": "Point", "coordinates": [ -45.869916, -23.188534 ] } },
{ "type": "Feature", "properties": { "id_estadio": 105, "estadio": "Canarinho", "cidade": "Boa Vista", "uf": "RR", "capacidade": "4 556", "latitude": 2.831442, "longitude": -60.660742 }, "geometry": { "type": "Point", "coordinates": [ -60.660742, 2.831442 ] } },
{ "type": "Feature", "properties": { "id_estadio": 107, "estadio": "Marizão", "cidade": "Sousa", "uf": "PB", "capacidade": "12 400", "latitude": -6.756011, "longitude": -38.223227 }, "geometry": { "type": "Point", "coordinates": [ -38.223227, -6.756011 ] } },
{ "type": "Feature", "properties": { "id_estadio": 108, "estadio": "Zerão", "cidade": "Macapá", "uf": "AP", "capacidade": "13 000", "latitude": 0.000696, "longitude": -51.080833 }, "geometry": { "type": "Point", "coordinates": [ -51.080833, 0.000696 ] } },
{ "type": "Feature", "properties": { "id_estadio": 110, "estadio": "Luthero Lopes", "cidade": "Rondonópolis", "uf": "MT", "capacidade": "19 000", "latitude": -16.457953, "longitude": -54.600055 }, "geometry": { "type": "Point", "coordinates": [ -54.600055, -16.457953 ] } },
{ "type": "Feature", "properties": { "id_estadio": 111, "estadio": "Castor Cifuentes", "cidade": "Nova Lima", "uf": "MG", "capacidade": "5 160", "latitude": -19.987712, "longitude": -43.844748 }, "geometry": { "type": "Point", "coordinates": [ -43.844748, -19.987712 ] } },
{ "type": "Feature", "properties": { "id_estadio": 56, "estadio": "Arena Inamar", "cidade": "Diadema", "uf": "SP", "capacidade": "10 000", "latitude": -23.723412, "longitude": -46.612862 }, "geometry": { "type": "Point", "coordinates": [ -46.612862, -23.723412 ] } },
{ "type": "Feature", "properties": { "id_estadio": 58, "estadio": "Felipão", "cidade": "Altos", "uf": "PI", "capacidade": "4 000", "latitude": -5.038176, "longitude": -42.445477 }, "geometry": { "type": "Point", "coordinates": [ -42.445477, -5.038176 ] } },
{ "type": "Feature", "properties": { "id_estadio": 40, "estadio": "Annibal Toledo", "cidade": "Aparecida de Goiânia", "uf": "GO", "capacidade": "5 000", "latitude": -16.820026, "longitude": -49.245528 }, "geometry": { "type": "Point", "coordinates": [ -49.245528, -16.820026 ] } },
{ "type": "Feature", "properties": { "id_estadio": 41, "estadio": "Arena Unimed", "cidade": "São João del-Rei", "uf": "MG", "capacidade": "3 500", "latitude": -21.127538, "longitude": -44.243448 }, "geometry": { "type": "Point", "coordinates": [ -44.243448, -21.127538 ] } },
{ "type": "Feature", "properties": { "id_estadio": 67, "estadio": "Parque do Bacurau", "cidade": "Cametá", "uf": "PA", "capacidade": "8 000", "latitude": -2.244346, "longitude": -49.49972 }, "geometry": { "type": "Point", "coordinates": [ -49.49972, -2.244346 ] } },
{ "type": "Feature", "properties": { "id_estadio": 71, "estadio": "Laertão", "cidade": "Costa Rica", "uf": "MS", "capacidade": "5 000", "latitude": -18.529282, "longitude": -53.145605 }, "geometry": { "type": "Point", "coordinates": [ -53.145605, -18.529282 ] } },
{ "type": "Feature", "properties": { "id_estadio": 72, "estadio": "Arena Rifertil", "cidade": "Catalão", "uf": "GO", "capacidade": "8 500", "latitude": -18.167435, "longitude": -47.9531 }, "geometry": { "type": "Point", "coordinates": [ -47.9531, -18.167435 ] } },
{ "type": "Feature", "properties": { "id_estadio": 74, "estadio": "Mamudão", "cidade": "Governador Valadares", "uf": "MG", "capacidade": "8 675", "latitude": -18.849411, "longitude": -41.941037 }, "geometry": { "type": "Point", "coordinates": [ -41.941037, -18.849411 ] } },
{ "type": "Feature", "properties": { "id_estadio": 77, "estadio": "Florestão", "cidade": "Porto Acre", "uf": "AC", "capacidade": "10 000", "latitude": -10.002421, "longitude": -67.803947 }, "geometry": { "type": "Point", "coordinates": [ -67.803947, -10.002421 ] } },
{ "type": "Feature", "properties": { "id_estadio": 97, "estadio": "Nogueirão", "cidade": "Mossoró", "uf": "RN", "capacidade": "5 000", "latitude": -5.185442, "longitude": -37.357081 }, "geometry": { "type": "Point", "coordinates": [ -37.357081, -5.185442 ] } },
{ "type": "Feature", "properties": { "id_estadio": 100, "estadio": "Defelê", "cidade": "Brasília", "uf": "DF", "capacidade": "6 875", "latitude": -15.79098, "longitude": -47.852597 }, "geometry": { "type": "Point", "coordinates": [ -47.852597, -15.79098 ] } },
{ "type": "Feature", "properties": { "id_estadio": 101, "estadio": "José Olímpio da Rocha", "cidade": "Águia Branca", "uf": "ES", "capacidade": "5 281", "latitude": -18.84665, "longitude": -40.745717 }, "geometry": { "type": "Point", "coordinates": [ -40.745717, -18.84665 ] } },
{ "type": "Feature", "properties": { "id_estadio": 50, "estadio": "Baenão", "cidade": "Belém", "uf": "PA", "capacidade": "13 792", "latitude": -1.445148, "longitude": -48.46608 }, "geometry": { "type": "Point", "coordinates": [ -48.46608, -1.445148 ] } },
{ "type": "Feature", "properties": { "id_estadio": 106, "estadio": "Robertão", "cidade": "Serra", "uf": "ES", "capacidade": "1 040", "latitude": -20.127635, "longitude": -40.304315 }, "geometry": { "type": "Point", "coordinates": [ -40.304315, -20.127635 ] } }
]
}
