{
"type": "FeatureCollection",
"name": "estadios_v1",
"crs": { "type": "name", "properties": { "name": "urn:ogc:def:crs:EPSG::4674" } },
"features": [
{ "type": "Feature", "properties": { "id_estadio": 1, "estadio": "Ligga Arena", "cidade": "Curitiba", "uf": "PR", "capacidade": null, "latitude": -25.44829025, "longitude": -49.27693797169357 }, "geometry": { "type": "Point", "coordinates": [ -49.27693797169357, -25.44829025 ] } },
{ "type": "Feature", "properties": { "id_estadio": 2, "estadio": "Antônio Accioly", "cidade": "Goiânia", "uf": "GO", "capacidade": null, "latitude": -16.66953085, "longitude": -49.28413757491893 }, "geometry": { "type": "Point", "coordinates": [ -49.28413757491893, -16.66953085 ] } },
{ "type": "Feature", "properties": { "id_estadio": 3, "estadio": "Arena MRV", "cidade": "Belo Horizonte", "uf": "MG", "capacidade": null, "latitude": -19.9300116, "longitude": -44.01388130198211 }, "geometry": { "type": "Point", "coordinates": [ -44.01388130198211, -19.9300116 ] } },
{ "type": "Feature", "properties": { "id_estadio": 4, "estadio": "Itaipava Arena Fonte Nova", "cidade": "Salvador", "uf": "BA", "capacidade": null, "latitude": -12.97888575, "longitude": -38.503482173027365 }, "geometry": { "type": "Point", "coordinates": [ -38.503482173027365, -12.97888575 ] } },
{ "type": "Feature", "properties": { "id_estadio": 5, "estadio": "Nilton Santos", "cidade": "Rio de Janeiro", "uf": "RJ", "capacidade": null, "latitude": -22.893194, "longitude": -43.293569086909287 }, "geometry": { "type": "Point", "coordinates": [ -43.293569086909287, -22.893194 ] } },
{ "type": "Feature", "properties": { "id_estadio": 6, "estadio": "Neo Química Arena", "cidade": "São Paulo", "uf": "SP", "capacidade": null, "latitude": -23.5452934, "longitude": -46.474286436433154 }, "geometry": { "type": "Point", "coordinates": [ -46.474286436433154, -23.5452934 ] } },
{ "type": "Feature", "properties": { "id_estadio": 7, "estadio": "Heriberto Hülse", "cidade": "Criciúma", "uf": "SC", "capacidade": null, "latitude": -28.6842897, "longitude": -49.367697007036668 }, "geometry": { "type": "Point", "coordinates": [ -49.367697007036668, -28.6842897 ] } },
{ "type": "Feature", "properties": { "id_estadio": 8, "estadio": "Mineirão", "cidade": "Belo Horizonte", "uf": "MG", "capacidade": null, "latitude": -19.8659115, "longitude": -43.971043404332157 }, "geometry": { "type": "Point", "coordinates": [ -43.971043404332157, -19.8659115 ] } },
{ "type": "Feature", "properties": { "id_estadio": 9, "estadio": "Arena Pantanal", "cidade": "Cuiabá", "uf": "MT", "capacidade": null, "latitude": -15.6040649, "longitude": -56.122298889987007 }, "geometry": { "type": "Point", "coordinates": [ -56.122298889987007, -15.6040649 ] } },
{ "type": "Feature", "properties": { "id_estadio": 10, "estadio": "Maracanã", "cidade": "Rio de Janeiro", "uf": "RJ", "capacidade": null, "latitude": -22.91216195, "longitude": -43.231186060029721 }, "geometry": { "type": "Point", "coordinates": [ -43.231186060029721, -22.91216195 ] } },
{ "type": "Feature", "properties": { "id_estadio": 11, "estadio": "Arena Castelão", "cidade": "Fortaleza", "uf": "CE", "capacidade": null, "latitude": -3.80674195, "longitude": -38.521679407264479 }, "geometry": { "type": "Point", "coordinates": [ -38.521679407264479, -3.80674195 ] } },
{ "type": "Feature", "properties": { "id_estadio": 12, "estadio": "Arena do Grêmio", "cidade": "Porto Alegre", "uf": "RS", "capacidade": null, "latitude": -29.97404295, "longitude": -51.195107349371696 }, "geometry": { "type": "Point", "coordinates": [ -51.195107349371696, -29.97404295 ] } },
{ "type": "Feature", "properties": { "id_estadio": 13, "estadio": "Beira-Rio", "cidade": "Porto Alegre", "uf": "RS", "capacidade": null, "latitude": -30.0655321, "longitude": -51.236318935076682 }, "geometry": { "type": "Point", "coordinates": [ -51.236318935076682, -30.0655321 ] } },
{ "type": "Feature", "properties": { "id_estadio": 14, "estadio": "Alfredo Jaconi", "cidade": "Caxias do Sul", "uf": "RS", "capacidade": null, "latitude": -29.16236395, "longitude": -51.176775332546285 }, "geometry": { "type": "Point", "coordinates": [ -51.176775332546285, -29.16236395 ] } },
{ "type": "Feature", "properties": { "id_estadio": 15, "estadio": "Allianz Parque", "cidade": "São Paulo", "uf": "SP", "capacidade": null, "latitude": -23.52749715, "longitude": -46.67852807811731 }, "geometry": { "type": "Point", "coordinates": [ -46.67852807811731, -23.52749715 ] } },
{ "type": "Feature", "properties": { "id_estadio": 16, "estadio": "Nabi Abi Chedid", "cidade": "Bragança Paulista", "uf": "SP", "capacidade": null, "latitude": -22.96539025, "longitude": -46.536885504943619 }, "geometry": { "type": "Point", "coordinates": [ -46.536885504943619, -22.96539025 ] } },
{ "type": "Feature", "properties": { "id_estadio": 17, "estadio": "Morumbis", "cidade": "São Paulo", "uf": "SP", "capacidade": null, "latitude": -23.60005845, "longitude": -46.720158347269496 }, "geometry": { "type": "Point", "coordinates": [ -46.720158347269496, -23.60005845 ] } },
{ "type": "Feature", "properties": { "id_estadio": 18, "estadio": "São Januário", "cidade": "Rio de Janeiro", "uf": "RJ", "capacidade": null, "latitude": -22.171562, "longitude": -42.4213832 }, "geometry": { "type": "Point", "coordinates": [ -42.4213832, -22.171562 ] } },
{ "type": "Feature", "properties": { "id_estadio": 19, "estadio": "Barradão", "cidade": "Salvador", "uf": "BA", "capacidade": null, "latitude": -12.91909595, "longitude": -38.427132059924404 }, "geometry": { "type": "Point", "coordinates": [ -38.427132059924404, -12.91909595 ] } },
{ "type": "Feature", "properties": { "id_estadio": 20, "estadio": "Arena da Amazônia", "cidade": "Manaus", "uf": "AM", "capacidade": null, "latitude": -3.0831132, "longitude": -60.028005184949649 }, "geometry": { "type": "Point", "coordinates": [ -60.028005184949649, -3.0831132 ] } },
{ "type": "Feature", "properties": { "id_estadio": 21, "estadio": "Independência", "cidade": "Belo Horizonte", "uf": "MG", "capacidade": null, "latitude": -20.01926925, "longitude": -44.033552228330421 }, "geometry": { "type": "Point", "coordinates": [ -44.033552228330421, -20.01926925 ] } },
{ "type": "Feature", "properties": { "id_estadio": 22, "estadio": "Ressacada", "cidade": "Florianópolis", "uf": "SC", "capacidade": null, "latitude": -27.6666549, "longitude": -48.5326687 }, "geometry": { "type": "Point", "coordinates": [ -48.5326687, -27.6666549 ] } },
{ "type": "Feature", "properties": { "id_estadio": 23, "estadio": "Santa Cruz", "cidade": "Ribeirão Preto", "uf": "SP", "capacidade": null, "latitude": -21.1997347, "longitude": -47.7980985 }, "geometry": { "type": "Point", "coordinates": [ -47.7980985, -21.1997347 ] } },
{ "type": "Feature", "properties": { "id_estadio": 24, "estadio": "Augusto Bauer", "cidade": "Brusque", "uf": "SC", "capacidade": null, "latitude": -27.10136955, "longitude": -48.916080049857143 }, "geometry": { "type": "Point", "coordinates": [ -48.916080049857143, -27.10136955 ] } },
{ "type": "Feature", "properties": { "id_estadio": 25, "estadio": "Arena Condá", "cidade": "Chapecó", "uf": "SC", "capacidade": null, "latitude": -27.10409255, "longitude": -52.606981807210673 }, "geometry": { "type": "Point", "coordinates": [ -52.606981807210673, -27.10409255 ] } },
{ "type": "Feature", "properties": { "id_estadio": 26, "estadio": "Couto Pereira", "cidade": "Curitiba", "uf": "PR", "capacidade": null, "latitude": -25.4214376, "longitude": -49.259756682627511 }, "geometry": { "type": "Point", "coordinates": [ -49.259756682627511, -25.4214376 ] } },
{ "type": "Feature", "properties": { "id_estadio": 27, "estadio": "Rei Pelé", "cidade": "Maceió", "uf": "AL", "capacidade": null, "latitude": -9.67090735, "longitude": -35.759654566814753 }, "geometry": { "type": "Point", "coordinates": [ -35.759654566814753, -9.67090735 ] } },
{ "type": "Feature", "properties": { "id_estadio": 28, "estadio": "Hailé Pinheiro", "cidade": "Goiânia", "uf": "GO", "capacidade": null, "latitude": -16.71124215, "longitude": -49.26119032471945 }, "geometry": { "type": "Point", "coordinates": [ -49.26119032471945, -16.71124215 ] } },
{ "type": "Feature", "properties": { "id_estadio": 29, "estadio": "Brinco de Ouro", "cidade": "Campinas", "uf": "SP", "capacidade": null, "latitude": -22.9095729, "longitude": -47.043369656777102 }, "geometry": { "type": "Point", "coordinates": [ -47.043369656777102, -22.9095729 ] } },
{ "type": "Feature", "properties": { "id_estadio": 30, "estadio": "Novelli Junior", "cidade": "Itu", "uf": "SP", "capacidade": null, "latitude": -23.28127375, "longitude": -47.287970871467707 }, "geometry": { "type": "Point", "coordinates": [ -47.287970871467707, -23.28127375 ] } },
{ "type": "Feature", "properties": { "id_estadio": 31, "estadio": "Campos Maia", "cidade": "Mirassol", "uf": "SP", "capacidade": null, "latitude": -20.82237165, "longitude": -49.506891564673218 }, "geometry": { "type": "Point", "coordinates": [ -49.506891564673218, -20.82237165 ] } },
{ "type": "Feature", "properties": { "id_estadio": 32, "estadio": "Jorge Ismael de Biasi", "cidade": "Novo Horizonte", "uf": "SP", "capacidade": null, "latitude": -21.46684585, "longitude": -49.232050562920882 }, "geometry": { "type": "Point", "coordinates": [ -49.232050562920882, -21.46684585 ] } },
{ "type": "Feature", "properties": { "id_estadio": 33, "estadio": "Germano Krüger", "cidade": "Ponta Grossa", "uf": "PR", "capacidade": null, "latitude": -25.1161924, "longitude": -50.156579436858969 }, "geometry": { "type": "Point", "coordinates": [ -50.156579436858969, -25.1161924 ] } },
{ "type": "Feature", "properties": { "id_estadio": 34, "estadio": "Curuzu", "cidade": "Belém", "uf": "PA", "capacidade": null, "latitude": -1.4451658, "longitude": -48.4624851 }, "geometry": { "type": "Point", "coordinates": [ -48.4624851, -1.4451658 ] } },
{ "type": "Feature", "properties": { "id_estadio": 35, "estadio": "Moisés Lucarelli", "cidade": "Campinas", "uf": "SP", "capacidade": null, "latitude": -22.9135401, "longitude": -47.051188151762659 }, "geometry": { "type": "Point", "coordinates": [ -47.051188151762659, -22.9135401 ] } },
{ "type": "Feature", "properties": { "id_estadio": 36, "estadio": "Vila Belmiro", "cidade": "Santos", "uf": "SP", "capacidade": null, "latitude": -23.9513973, "longitude": -46.3374426 }, "geometry": { "type": "Point", "coordinates": [ -46.3374426, -23.9513973 ] } },
{ "type": "Feature", "properties": { "id_estadio": 37, "estadio": "Ilha do Retiro", "cidade": "Recife", "uf": "PE", "capacidade": null, "latitude": -8.063751, "longitude": -34.9038034 }, "geometry": { "type": "Point", "coordinates": [ -34.9038034, -8.063751 ] } },
{ "type": "Feature", "properties": { "id_estadio": 38, "estadio": "OBA", "cidade": "Goiânia", "uf": "GO", "capacidade": null, "latitude": -16.7138738, "longitude": -49.2688684 }, "geometry": { "type": "Point", "coordinates": [ -49.2688684, -16.7138738 ] } },
{ "type": "Feature", "properties": { "id_estadio": 39, "estadio": "Frasqueirão", "cidade": "Natal", "uf": "RN", "capacidade": null, "latitude": -5.8892178, "longitude": -35.179795843477791 }, "geometry": { "type": "Point", "coordinates": [ -35.179795843477791, -5.8892178 ] } },
{ "type": "Feature", "properties": { "id_estadio": 40, "estadio": "Annibal Toledo", "cidade": "Aparecida de Goiânia", "uf": "GO", "capacidade": null, "latitude": null, "longitude": null }, "geometry": null },
{ "type": "Feature", "properties": { "id_estadio": 41, "estadio": "Arena Unimed", "cidade": "São João del-Rei", "uf": "MG", "capacidade": null, "latitude": null, "longitude": null }, "geometry": null },
{ "type": "Feature", "properties": { "id_estadio": 42, "estadio": "Almeidão", "cidade": "João Pessoa", "uf": "PB", "capacidade": null, "latitude": -7.16713985, "longitude": -34.873426663220933 }, "geometry": { "type": "Point", "coordinates": [ -34.873426663220933, -7.16713985 ] } },
{ "type": "Feature", "properties": { "id_estadio": 43, "estadio": "Centenário", "cidade": "Caxias do Sul", "uf": "RS", "capacidade": null, "latitude": -29.16500905, "longitude": -51.196612843213558 }, "geometry": { "type": "Point", "coordinates": [ -51.196612843213558, -29.16500905 ] } },
{ "type": "Feature", "properties": { "id_estadio": 44, "estadio": "Batistão", "cidade": "Aracaju", "uf": "SE", "capacidade": null, "latitude": -10.9270651, "longitude": -37.049111414695865 }, "geometry": { "type": "Point", "coordinates": [ -37.049111414695865, -10.9270651 ] } },
{ "type": "Feature", "properties": { "id_estadio": 45, "estadio": "Fonte Luminosa", "cidade": "Araraquara", "uf": "SP", "capacidade": null, "latitude": -21.7707566, "longitude": -48.170627720904882 }, "geometry": { "type": "Point", "coordinates": [ -48.170627720904882, -21.7707566 ] } },
{ "type": "Feature", "properties": { "id_estadio": 46, "estadio": "Presidente Vargas", "cidade": "Fortaleza", "uf": "CE", "capacidade": null, "latitude": -3.7459952, "longitude": -38.536892887760239 }, "geometry": { "type": "Point", "coordinates": [ -38.536892887760239, -3.7459952 ] } },
{ "type": "Feature", "properties": { "id_estadio": 47, "estadio": "Orlando Scarpelli", "cidade": "Florianópolis", "uf": "SC", "capacidade": null, "latitude": -27.58554625, "longitude": -48.5864658089275 }, "geometry": { "type": "Point", "coordinates": [ -48.5864658089275, -27.58554625 ] } },
{ "type": "Feature", "properties": { "id_estadio": 48, "estadio": "Estádio do Café", "cidade": "Londrina", "uf": "PR", "capacidade": null, "latitude": -23.28257765, "longitude": -51.164609087308982 }, "geometry": { "type": "Point", "coordinates": [ -51.164609087308982, -23.28257765 ] } },
{ "type": "Feature", "properties": { "id_estadio": 49, "estadio": "Aflitos", "cidade": "Recife", "uf": "PE", "capacidade": null, "latitude": -8.0392007, "longitude": -34.8967064 }, "geometry": { "type": "Point", "coordinates": [ -34.8967064, -8.0392007 ] } },
{ "type": "Feature", "properties": { "id_estadio": 50, "estadio": "Baenão", "cidade": "Belém", "uf": "PA", "capacidade": null, "latitude": null, "longitude": null }, "geometry": null },
{ "type": "Feature", "properties": { "id_estadio": 51, "estadio": "Castelão", "cidade": "São Luís", "uf": "MA", "capacidade": null, "latitude": -2.54875695, "longitude": -44.260951338681295 }, "geometry": { "type": "Point", "coordinates": [ -44.260951338681295, -2.54875695 ] } },
{ "type": "Feature", "properties": { "id_estadio": 52, "estadio": "Primeiro de Maio", "cidade": "São Bernardo do Campo", "uf": "SP", "capacidade": null, "latitude": -23.6998343, "longitude": -46.556355998792512 }, "geometry": { "type": "Point", "coordinates": [ -46.556355998792512, -23.6998343 ] } },
{ "type": "Feature", "properties": { "id_estadio": 53, "estadio": "Passo d'Areia", "cidade": "Porto Alegre", "uf": "RS", "capacidade": null, "latitude": -30.0149148, "longitude": -51.1672357 }, "geometry": { "type": "Point", "coordinates": [ -51.1672357, -30.0149148 ] } },
{ "type": "Feature", "properties": { "id_estadio": 54, "estadio": "Raulino de Oliveira", "cidade": "Volta Redonda", "uf": "RJ", "capacidade": null, "latitude": -22.50820005, "longitude": -44.096902797020469 }, "geometry": { "type": "Point", "coordinates": [ -44.096902797020469, -22.50820005 ] } },
{ "type": "Feature", "properties": { "id_estadio": 55, "estadio": "Colosso da Lagoa", "cidade": "Erechim", "uf": "RS", "capacidade": null, "latitude": -27.6512664, "longitude": -52.264901792155165 }, "geometry": { "type": "Point", "coordinates": [ -52.264901792155165, -27.6512664 ] } },
{ "type": "Feature", "properties": { "id_estadio": 56, "estadio": "Arena Inamar", "cidade": "Diadema", "uf": "SP", "capacidade": null, "latitude": null, "longitude": null }, "geometry": null },
{ "type": "Feature", "properties": { "id_estadio": 57, "estadio": "Zinho de Oliveira", "cidade": "Marabá", "uf": "PA", "capacidade": null, "latitude": -5.3521134, "longitude": -49.138437784471222 }, "geometry": { "type": "Point", "coordinates": [ -49.138437784471222, -5.3521134 ] } },
{ "type": "Feature", "properties": { "id_estadio": 58, "estadio": "Felipão", "cidade": "Altos", "uf": "PI", "capacidade": null, "latitude": null, "longitude": null }, "geometry": null },
{ "type": "Feature", "properties": { "id_estadio": 59, "estadio": "Arena das Dunas", "cidade": "Natal", "uf": "RN", "capacidade": null, "latitude": -5.82658025, "longitude": -35.212687882543079 }, "geometry": { "type": "Point", "coordinates": [ -35.212687882543079, -5.82658025 ] } },
{ "type": "Feature", "properties": { "id_estadio": 60, "estadio": "Jonas Duarte", "cidade": "Anápolis", "uf": "GO", "capacidade": null, "latitude": -16.34645185, "longitude": -48.954964289155015 }, "geometry": { "type": "Point", "coordinates": [ -48.954964289155015, -16.34645185 ] } },
{ "type": "Feature", "properties": { "id_estadio": 61, "estadio": "Coaracy Fonseca", "cidade": "Arapiraca", "uf": "AL", "capacidade": null, "latitude": -9.7476436, "longitude": -36.666824952533133 }, "geometry": { "type": "Point", "coordinates": [ -36.666824952533133, -9.7476436 ] } },
{ "type": "Feature", "properties": { "id_estadio": 62, "estadio": "Bacaxá", "cidade": "Saquarema", "uf": "RJ", "capacidade": null, "latitude": -22.8939, "longitude": -42.4663 }, "geometry": { "type": "Point", "coordinates": [ -42.4663, -22.8939 ] } },
{ "type": "Feature", "properties": { "id_estadio": 63, "estadio": "Eucaliptos", "cidade": "Santa Cruz do Sul", "uf": "RS", "capacidade": null, "latitude": -29.7070027, "longitude": -52.442207692119432 }, "geometry": { "type": "Point", "coordinates": [ -52.442207692119432, -29.7070027 ] } },
{ "type": "Feature", "properties": { "id_estadio": 64, "estadio": "Aníbal Costa", "cidade": "Balneário Camboriú", "uf": "SC", "capacidade": null, "latitude": null, "longitude": null }, "geometry": null },
{ "type": "Feature", "properties": { "id_estadio": 65, "estadio": "Bento Freitas", "cidade": "Pelotas", "uf": "RS", "capacidade": null, "latitude": -31.7709005, "longitude": -52.332438157918872 }, "geometry": { "type": "Point", "coordinates": [ -52.332438157918872, -31.7709005 ] } },
{ "type": "Feature", "properties": { "id_estadio": 66, "estadio": "Serejão", "cidade": "Taguatinga", "uf": "DF", "capacidade": null, "latitude": -15.8360896, "longitude": -48.080643719379367 }, "geometry": { "type": "Point", "coordinates": [ -48.080643719379367, -15.8360896 ] } },
{ "type": "Feature", "properties": { "id_estadio": 67, "estadio": "Parque do Bacurau", "cidade": "Cametá", "uf": "PA", "capacidade": null, "latitude": null, "longitude": null }, "geometry": null },
{ "type": "Feature", "properties": { "id_estadio": 68, "estadio": "Estádio Nilton Santos", "cidade": "Palmas", "uf": "TO", "capacidade": null, "latitude": -10.2821413, "longitude": -48.330649732890691 }, "geometry": { "type": "Point", "coordinates": [ -48.330649732890691, -10.2821413 ] } },
{ "type": "Feature", "properties": { "id_estadio": 69, "estadio": "Albino Turbay", "cidade": "Cianorte", "uf": "PR", "capacidade": null, "latitude": -23.66166055, "longitude": -52.593527753354657 }, "geometry": { "type": "Point", "coordinates": [ -52.593527753354657, -23.66166055 ] } },
{ "type": "Feature", "properties": { "id_estadio": 70, "estadio": "Domingos Machado de Lima", "cidade": "Concórdia", "uf": "SC", "capacidade": null, "latitude": -27.2270644, "longitude": -52.0270597 }, "geometry": { "type": "Point", "coordinates": [ -52.0270597, -27.2270644 ] } },
{ "type": "Feature", "properties": { "id_estadio": 71, "estadio": "Laertão", "cidade": "Costa Rica", "uf": "MS", "capacidade": null, "latitude": null, "longitude": null }, "geometry": null },
{ "type": "Feature", "properties": { "id_estadio": 72, "estadio": "Arena Rifertil", "cidade": "Catalão", "uf": "GO", "capacidade": null, "latitude": null, "longitude": null }, "geometry": null },
{ "type": "Feature", "properties": { "id_estadio": 73, "estadio": "Juca Sampaio", "cidade": "Palmeira dos Índios", "uf": "AL", "capacidade": null, "latitude": -9.4254352, "longitude": -36.6277365 }, "geometry": { "type": "Point", "coordinates": [ -36.6277365, -9.4254352 ] } },
{ "type": "Feature", "properties": { "id_estadio": 74, "estadio": "Mamudão", "cidade": "Governador Valadares", "uf": "MG", "capacidade": null, "latitude": null, "longitude": null }, "geometry": null },
{ "type": "Feature", "properties": { "id_estadio": 75, "estadio": "Olímpico Regional", "cidade": "Cascavel", "uf": "PR", "capacidade": null, "latitude": -24.9750034, "longitude": -53.502440429100531 }, "geometry": { "type": "Point", "coordinates": [ -53.502440429100531, -24.9750034 ] } },
{ "type": "Feature", "properties": { "id_estadio": 76, "estadio": "Albertão", "cidade": "Teresina", "uf": "PI", "capacidade": null, "latitude": -5.1161379, "longitude": -42.79287199311419 }, "geometry": { "type": "Point", "coordinates": [ -42.79287199311419, -5.1161379 ] } },
{ "type": "Feature", "properties": { "id_estadio": 77, "estadio": "Florestão", "cidade": "Porto Acre", "uf": "AC", "capacidade": null, "latitude": null, "longitude": null }, "geometry": null },
{ "type": "Feature", "properties": { "id_estadio": 78, "estadio": "Morenão", "cidade": "Iguatu", "uf": "CE", "capacidade": null, "latitude": -6.36777515, "longitude": -39.302837093023513 }, "geometry": { "type": "Point", "coordinates": [ -39.302837093023513, -6.36777515 ] } },
{ "type": "Feature", "properties": { "id_estadio": 79, "estadio": "Limeirão", "cidade": "Limeira", "uf": "SP", "capacidade": null, "latitude": -22.5553667, "longitude": -47.38511495372753 }, "geometry": { "type": "Point", "coordinates": [ -47.38511495372753, -22.5553667 ] } },
{ "type": "Feature", "properties": { "id_estadio": 80, "estadio": "Ipatingão", "cidade": "Ipatinga", "uf": "MG", "capacidade": null, "latitude": -19.47114335, "longitude": -42.541703156267857 }, "geometry": { "type": "Point", "coordinates": [ -42.541703156267857, -19.47114335 ] } },
{ "type": "Feature", "properties": { "id_estadio": 81, "estadio": "Ferreirão", "cidade": "Iporá", "uf": "GO", "capacidade": null, "latitude": -16.4596699, "longitude": -51.115034474374255 }, "geometry": { "type": "Point", "coordinates": [ -51.115034474374255, -16.4596699 ] } },
{ "type": "Feature", "properties": { "id_estadio": 82, "estadio": "Etelvino Mendonça", "cidade": "Itabaiana", "uf": "SE", "capacidade": null, "latitude": -10.6886957, "longitude": -37.43071597709141 }, "geometry": { "type": "Point", "coordinates": [ -37.43071597709141, -10.6886957 ] } },
{ "type": "Feature", "properties": { "id_estadio": 83, "estadio": "Ribeirão", "cidade": "Itabuna", "uf": "BA", "capacidade": null, "latitude": -15.8778065, "longitude": -39.1417954 }, "geometry": { "type": "Point", "coordinates": [ -39.1417954, -15.8778065 ] } },
{ "type": "Feature", "properties": { "id_estadio": 84, "estadio": "Valfredão", "cidade": "Riachão do Jacuípe", "uf": "BA", "capacidade": null, "latitude": -11.80794875, "longitude": -39.379408200874657 }, "geometry": { "type": "Point", "coordinates": [ -39.379408200874657, -11.80794875 ] } },
{ "type": "Feature", "properties": { "id_estadio": 85, "estadio": "Adautão", "cidade": "Juazeiro", "uf": "BA", "capacidade": null, "latitude": -9.4155139, "longitude": -40.502834346177274 }, "geometry": { "type": "Point", "coordinates": [ -40.502834346177274, -9.4155139 ] } },
{ "type": "Feature", "properties": { "id_estadio": 86, "estadio": "Carlos Zamith", "cidade": "Manaus", "uf": "AM", "capacidade": null, "latitude": -3.08436985, "longitude": -59.983945854222895 }, "geometry": { "type": "Point", "coordinates": [ -59.983945854222895, -3.08436985 ] } },
{ "type": "Feature", "properties": { "id_estadio": 87, "estadio": "Colina", "cidade": "Manaus", "uf": "AM", "capacidade": null, "latitude": -3.1215153, "longitude": -60.037706674530114 }, "geometry": { "type": "Point", "coordinates": [ -60.037706674530114, -3.1215153 ] } },
{ "type": "Feature", "properties": { "id_estadio": 88, "estadio": "Almir Dutra", "cidade": "Maracanaú", "uf": "CE", "capacidade": null, "latitude": -3.87533585, "longitude": -38.622895563759997 }, "geometry": { "type": "Point", "coordinates": [ -38.622895563759997, -3.87533585 ] } },
{ "type": "Feature", "properties": { "id_estadio": 89, "estadio": "Nhozinho Santos", "cidade": "São Luís", "uf": "MA", "capacidade": null, "latitude": -2.53628055, "longitude": -44.289180522318148 }, "geometry": { "type": "Point", "coordinates": [ -44.289180522318148, -2.53628055 ] } },
{ "type": "Feature", "properties": { "id_estadio": 90, "estadio": "Willie Davids", "cidade": "Maringá", "uf": "PR", "capacidade": null, "latitude": -23.4141502, "longitude": -51.938218403924253 }, "geometry": { "type": "Point", "coordinates": [ -51.938218403924253, -23.4141502 ] } },
{ "type": "Feature", "properties": { "id_estadio": 91, "estadio": "Dutrinha", "cidade": "Cuiabá", "uf": "MT", "capacidade": null, "latitude": -15.6067731, "longitude": -56.1050246 }, "geometry": { "type": "Point", "coordinates": [ -56.1050246, -15.6067731 ] } },
{ "type": "Feature", "properties": { "id_estadio": 92, "estadio": "Laranjão", "cidade": "Nova Iguaçu", "uf": "RJ", "capacidade": null, "latitude": -22.747983, "longitude": -43.460907701173056 }, "geometry": { "type": "Point", "coordinates": [ -43.460907701173056, -22.747983 ] } },
{ "type": "Feature", "properties": { "id_estadio": 93, "estadio": "Estádio do Vale", "cidade": "Novo Hamburgo", "uf": "RS", "capacidade": null, "latitude": -29.72619985, "longitude": -51.143787051264738 }, "geometry": { "type": "Point", "coordinates": [ -51.143787051264738, -29.72619985 ] } },
{ "type": "Feature", "properties": { "id_estadio": 94, "estadio": "Paulo Coelho", "cidade": "Petrolina", "uf": "PE", "capacidade": null, "latitude": -9.39043455, "longitude": -40.504659571114402 }, "geometry": { "type": "Point", "coordinates": [ -40.504659571114402, -9.39043455 ] } },
{ "type": "Feature", "properties": { "id_estadio": 95, "estadio": "Aluizão", "cidade": "Porto Velho", "uf": "RO", "capacidade": null, "latitude": -8.75734145, "longitude": -63.91058811277432 }, "geometry": { "type": "Point", "coordinates": [ -63.91058811277432, -8.75734145 ] } },
{ "type": "Feature", "properties": { "id_estadio": 96, "estadio": "Luso-Brasileiro", "cidade": "Rio de Janeiro", "uf": "RJ", "capacidade": null, "latitude": -22.89882275, "longitude": -43.575414495238647 }, "geometry": { "type": "Point", "coordinates": [ -43.575414495238647, -22.89882275 ] } },
{ "type": "Feature", "properties": { "id_estadio": 97, "estadio": "Nogueirão", "cidade": "Mossoró", "uf": "RN", "capacidade": null, "latitude": null, "longitude": null }, "geometry": null },
{ "type": "Feature", "properties": { "id_estadio": 98, "estadio": "Manduzão", "cidade": "Pouso Alegre", "uf": "MG", "capacidade": null, "latitude": -22.2514337, "longitude": -45.921523853867512 }, "geometry": { "type": "Point", "coordinates": [ -45.921523853867512, -22.2514337 ] } },
{ "type": "Feature", "properties": { "id_estadio": 99, "estadio": "Gilbertão", "cidade": "Manacapuru", "uf": "AM", "capacidade": null, "latitude": -3.2834004, "longitude": -60.631612454230748 }, "geometry": { "type": "Point", "coordinates": [ -60.631612454230748, -3.2834004 ] } },
{ "type": "Feature", "properties": { "id_estadio": 100, "estadio": "Defelê", "cidade": "Brasília", "uf": "DF", "capacidade": null, "latitude": null, "longitude": null }, "geometry": null },
{ "type": "Feature", "properties": { "id_estadio": 101, "estadio": "José Olímpio da Rocha", "cidade": "Águia Branca", "uf": "ES", "capacidade": null, "latitude": null, "longitude": null }, "geometry": null },
{ "type": "Feature", "properties": { "id_estadio": 102, "estadio": "Arena de Pernambuco", "cidade": "Camaragibe", "uf": "PE", "capacidade": null, "latitude": -8.0278683, "longitude": -34.9969647 }, "geometry": { "type": "Point", "coordinates": [ -34.9969647, -8.0278683 ] } },
{ "type": "Feature", "properties": { "id_estadio": 103, "estadio": "Bruno José Daniel", "cidade": "Santo André", "uf": "SP", "capacidade": null, "latitude": -23.66956725, "longitude": -46.509318640476202 }, "geometry": { "type": "Point", "coordinates": [ -46.509318640476202, -23.66956725 ] } },
{ "type": "Feature", "properties": { "id_estadio": 104, "estadio": "Martins Pereira", "cidade": "São José dos Campos", "uf": "SP", "capacidade": null, "latitude": -23.18855785, "longitude": -45.869823467556643 }, "geometry": { "type": "Point", "coordinates": [ -45.869823467556643, -23.18855785 ] } },
{ "type": "Feature", "properties": { "id_estadio": 105, "estadio": "Canarinho", "cidade": "Boa Vista", "uf": "RR", "capacidade": null, "latitude": 2.8345, "longitude": -60.6582439 }, "geometry": { "type": "Point", "coordinates": [ -60.6582439, 2.8345 ] } },
{ "type": "Feature", "properties": { "id_estadio": 106, "estadio": "Robertão", "cidade": "Serra", "uf": "ES", "capacidade": null, "latitude": null, "longitude": null }, "geometry": null },
{ "type": "Feature", "properties": { "id_estadio": 107, "estadio": "Marizão", "cidade": "Sousa", "uf": "PB", "capacidade": null, "latitude": -6.75594795, "longitude": -38.224099511053126 }, "geometry": { "type": "Point", "coordinates": [ -38.224099511053126, -6.75594795 ] } },
{ "type": "Feature", "properties": { "id_estadio": 108, "estadio": "Zerão", "cidade": "Macapá", "uf": "AP", "capacidade": null, "latitude": -0.0017167, "longitude": -51.0987801 }, "geometry": { "type": "Point", "coordinates": [ -51.0987801, -0.0017167 ] } },
{ "type": "Feature", "properties": { "id_estadio": 109, "estadio": "Amigão", "cidade": "Campina Grande", "uf": "PB", "capacidade": null, "latitude": -7.25392285, "longitude": -35.880878540290709 }, "geometry": { "type": "Point", "coordinates": [ -35.880878540290709, -7.25392285 ] } },
{ "type": "Feature", "properties": { "id_estadio": 110, "estadio": "Luthero Lopes", "cidade": "Rondonópolis", "uf": "MT", "capacidade": null, "latitude": -16.45803985, "longitude": -54.600044342281123 }, "geometry": { "type": "Point", "coordinates": [ -54.600044342281123, -16.45803985 ] } },
{ "type": "Feature", "properties": { "id_estadio": 111, "estadio": "Castor Cifuentes", "cidade": "Nova Lima", "uf": "MG", "capacidade": null, "latitude": -19.9875487, "longitude": -43.844796674250851 }, "geometry": { "type": "Point", "coordinates": [ -43.844796674250851, -19.9875487 ] } },
{ "type": "Feature", "properties": { "id_estadio": 112, "estadio": "TESTE", "cidade": "Florianópolis", "uf": "SC", "capacidade": 30000.0, "latitude": -27.589721585508133, "longitude": -48.556799264231273 }, "geometry": { "type": "Point", "coordinates": [ -48.556799264231273, -27.589721585508133 ] } }
]
}
